{
  "plus_code": {
    "compound_code": "XQ3Q+65J Philadelphia, PA, USA",
    "global_code": "87F6XQ3Q+65J"
  },
  "results": [
    {
      "address_components": [
        {
          "long_name": "261",
          "short_name": "261",
          "types": [
            "street_number"
          ]
        },
        {
          "long_name": "South 45th Street",
          "short_name": "S 45th St",
          "types": [
            "route"
          ]
        },
        {
          "long_name": "University City",
          "short_name": "University City",
          "types": [
            "neighborhood",
            "political"
          ]
        },
        {
          "long_name": "Philadelphia",
          "short_name": "Philadelphia",
          "types": [
            "locality",
            "political"
          ]
        },
        {
          "long_name": "Philadelphia County",
          "short_name": "Philadelphia County",
          "types": [
            "administrative_area_level_2",
            "political"
          ]
        },
        {
          "long_name": "Pennsylvania",
          "short_name": "PA",
          "types": [
            "administrative_area_level_1",
            "political"
          ]
        },
        {
          "long_name": "United States",
          "short_name": "US",
          "types": [
            "country",
            "political"
          ]
        },
        {
          "long_name": "19104",
          "short_name": "19104",
          "types": [
            "postal_code"
          ]
        }
      ],
      "formatted_address": "261 S 45th St, Philadelphia, PA 19104, USA",
      "geometry": {
        "location": {
          "lat": 39.9531022,
          "lng": -75.2119798
        },
        "location_type": "ROOFTOP",
        "viewport": {
          "northeast": {
            "lat": 39.9544511802915,
            "lng": -75.2106308197085
          },
          "southwest": {
            "lat": 39.9517532197085,
            "lng": -75.2133287802915
          }
        }
      },
      "navigation_points": [
        {
          "location": {
            "latitude": 39.9531101,
            "longitude": -75.212046
          }
        }
      ],
      "place_id": "ChIJ5-8CM_DGxokRLJS5CBbWv24",
      "types": [
        "premise",
        "street_address"
      ]
    },
    {
      "address_components": [
        {
          "long_name": "4443",
          "short_name": "4443",
          "types": [
            "street_number"
          ]
        },
        {
          "long_name": "Spruce Street",
          "short_name": "Spruce St",
          "types": [
            "route"
          ]
        },
        {
          "long_name": "University City",
          "short_name": "University City",
          "types": [
            "neighborhood",
            "political"
          ]
        },
        {
          "long_name": "Philadelphia",
          "short_name": "Philadelphia",
          "types": [
            "locality",
            "political"
          ]
        },
        {
          "long_name": "Philadelphia County",
          "short_name": "Philadelphia County",
          "types": [
            "administrative_area_level_2",
            "political"
          ]
        },
        {
          "long_name": "Pennsylvania",
          "short_name": "PA",
          "types": [
            "administrative_area_level_1",
            "political"
          ]
        },
        {
          "long_name": "United States",
          "short_name": "US",
          "types": [
            "country",
            "political"
          ]
        },
        {
          "long_name": "19104",
          "short_name": "19104",
          "types": [
            "postal_code"
          ]
        },
        {
          "long_name": "4703",
          "short_name": "4703",
          "types": [
            "postal_code_suffix"
          ]
        }
      ],
      "formatted_address": "4443 Spruce St, Philadelphia, PA 19104, USA",
      "geometry": {
        "location": {
          "lat": 39.953138,
          "lng": -75.21198799999999
        },
        "location_type": "ROOFTOP",
        "viewport": {
          "northeast": {
            "lat": 39.95448698029151,
            "lng": -75.21063901970848
          },
          "southwest": {
            "lat": 39.95178901970851,
            "lng": -75.2133369802915
          }
        }
      },
      "navigation_points": [
        {
          "location": {
            "latitude": 39.9529263,
            "longitude": -75.2120319
          }
        }
      ],
      "place_id": "ChIJzSwAM_DGxokRXAFDvuQGc2M",
      "types": [
        "street_address",
        "subpremise"
      ]
    },
    {
      "address_components": [
        {
          "long_name": "4443",
          "short_name": "4443",
          "types": [
            "street_number"
          ]
        },
        {
          "long_name": "Spruce Street",
          "short_name": "Spruce St",
          "types": [
            "route"
          ]
        },
        {
          "long_name": "University City",
          "short_name": "University City",
          "types": [
            "neighborhood",
            "political"
          ]
        },
        {
          "long_name": "Philadelphia",
          "short_name": "Philadelphia",
          "types": [
            "locality",
            "political"
          ]
        },
        {
          "long_name": "Philadelphia County",
          "short_name": "Philadelphia County",
          "types": [
            "administrative_area_level_2",
            "political"
          ]
        },
        {
          "long_name": "Pennsylvania",
          "short_name": "PA",
          "types": [
            "administrative_area_level_1",
            "political"
          ]
        },
        {
          "long_name": "United States",
          "short_name": "US",
          "types": [
            "country",
            "political"
          ]
        },
        {
          "long_name": "19104",
          "short_name": "19104",
          "types": [
            "postal_code"
          ]
        },
        {
          "long_name": "4703",
          "short_name": "4703",
          "types": [
            "postal_code_suffix"
          ]
        }
      ],
      "formatted_address": "4443 Spruce St, Philadelphia, PA 19104, USA",
      "geometry": {
        "location": {
          "lat": 39.9529874,
          "lng": -75.2120084
        },
        "location_type": "ROOFTOP",
        "viewport": {
          "northeast": {
            "lat": 39.95433638029149,
            "lng": -75.2106594197085
          },
          "southwest": {
            "lat": 39.9516384197085,
            "lng": -75.21335738029151
          }
        }
      },
      "navigation_points": [
        {
          "location": {
            "latitude": 39.9529733,
            "longitude": -75.2120745
          }
        }
      ],
      "place_id": "ChIJ855YIFnHxokRNfER2Ira_FQ",
      "plus_code": {
        "compound_code": "XQ3Q+55 Philadelphia, PA, USA",
        "global_code": "87F6XQ3Q+55"
      },
      "types": [
        "establishment",
        "food",
        "point_of_interest",
        "restaurant"
      ]
    },
    {
      "address_components": [
        {
          "long_name": "Spruce St & 45th St",
          "short_name": "Spruce St & 45th St",
          "types": [
            "establishment",
            "point_of_interest",
            "transit_station"
          ]
        },
        {
          "long_name": "University City",
          "short_name": "University City",
          "types": [
            "neighborhood",
            "political"
          ]
        },
        {
          "long_name": "Philadelphia",
          "short_name": "Philadelphia",
          "types": [
            "locality",
            "political"
          ]
        },
        {
          "long_name": "Philadelphia County",
          "short_name": "Philadelphia County",
          "types": [
            "administrative_area_level_2",
            "political"
          ]
        },
        {
          "long_name": "Pennsylvania",
          "short_name": "PA",
          "types": [
            "administrative_area_level_1",
            "political"
          ]
        },
        {
          "long_name": "United States",
          "short_name": "US",
          "types": [
            "country",
            "political"
          ]
        },
        {
          "long_name": "19104",
          "short_name": "19104",
          "types": [
            "postal_code"
          ]
        }
      ],
      "formatted_address": "Spruce St & 45th St, Philadelphia, PA 19104, USA",
      "geometry": {
        "location": {
          "lat": 39.952911,
          "lng": -75.212059
        },
        "location_type": "GEOMETRIC_CENTER",
        "viewport": {
          "northeast": {
            "lat": 39.9542599802915,
            "lng": -75.2107100197085
          },
          "southwest": {
            "lat": 39.9515620197085,
            "lng": -75.2134079802915
          }
        }
      },
      "navigation_points": [
        {
          "location": {
            "latitude": 39.9529283,
            "longitude": -75.2120554
          }
        }
      ],
      "place_id": "ChIJuQxHzfHGxokRtRaEV-S3CZA",
      "plus_code": {
        "compound_code": "XQ3Q+55 Philadelphia, PA, USA",
        "global_code": "87F6XQ3Q+55"
      },
      "types": [
        "establishment",
        "point_of_interest",
        "transit_station"
      ]
    },
    {
      "address_components": [
        {
          "long_name": "284",
          "short_name": "284",
          "types": [
            "street_number"
          ]
        },
        {
          "long_name": "South 45th Street",
          "short_name": "S 45th St",
          "types": [
            "route"
          ]
        },
        {
          "long_name": "University City",
          "short_name": "University City",
          "types": [
            "neighborhood",
            "political"
          ]
        },
        {
          "long_name": "Philadelphia",
          "short_name": "Philadelphia",
          "types": [
            "locality",
            "political"
          ]
        },
        {
          "long_name": "Philadelphia County",
          "short_name": "Philadelphia County",
          "types": [
            "administrative_area_level_2",
            "political"
          ]
        },
        {
          "long_name": "Pennsylvania",
          "short_name": "PA",
          "types": [
            "administrative_area_level_1",
            "political"
          ]
        },
        {
          "long_name": "United States",
          "short_name": "US",
          "types": [
            "country",
            "political"
          ]
        },
        {
          "long_name": "19104",
          "short_name": "19104",
          "types": [
            "postal_code"
          ]
        }
      ],
      "formatted_address": "284 S 45th St, Philadelphia, PA 19104, USA",
      "geometry": {
        "location": {
          "lat": 39.9530728,
          "lng": -75.2121368
        },
        "location_type": "RANGE_INTERPOLATED",
        "viewport": {
          "northeast": {
            "lat": 39.9544217802915,
            "lng": -75.21078781970849
          },
          "southwest": {
            "lat": 39.9517238197085,
            "lng": -75.2134857802915
          }
        }
      },
      "place_id": "EioyODQgUyA0NXRoIFN0LCBQaGlsYWRlbHBoaWEsIFBBIDE5MTA0LCBVU0EiGxIZChQKEglHWk4w8MbGiRFy0NutSqOccBCcAg",
      "types": [
        "street_address"
      ]
    },
    {
      "address_components": [
        {
          "long_name": "234-298",
          "short_name": "234-298",
          "types": [
            "street_number"
          ]
        },
        {
          "long_name": "South 45th Street",
          "short_name": "S 45th St",
          "types": [
            "route"
          ]
        },
        {
          "long_name": "University City",
          "short_name": "University City",
          "types": [
            "neighborhood",
            "political"
          ]
        },
        {
          "long_name": "Philadelphia",
          "short_name": "Philadelphia",
          "types": [
            "locality",
            "political"
          ]
        },
        {
          "long_name": "Philadelphia County",
          "short_name": "Philadelphia County",
          "types": [
            "administrative_area_level_2",
            "political"
          ]
        },
        {
          "long_name": "Pennsylvania",
          "short_name": "PA",
          "types": [
            "administrative_area_level_1",
            "political"
          ]
        },
        {
          "long_name": "United States",
          "short_name": "US",
          "types": [
            "country",
            "political"
          ]
        },
        {
          "long_name": "19104",
          "short_name": "19104",
          "types": [
            "postal_code"
          ]
        }
      ],
      "formatted_address": "234-298 S 45th St, Philadelphia, PA 19104, USA",
      "geometry": {
        "bounds": {
          "northeast": {
            "lat": 39.9541038,
            "lng": -75.2119232
          },
          "southwest": {
            "lat": 39.9528801,
            "lng": -75.2121763
          }
        },
        "location": {
          "lat": 39.9534921,
          "lng": -75.21205069999999
        },
        "location_type": "GEOMETRIC_CENTER",
        "viewport": {
          "northeast": {
            "lat": 39.9548409302915,
            "lng": -75.2107007697085
          },
          "southwest": {
            "lat": 39.9521429697085,
            "lng": -75.2133987302915
          }
        }
      },
      "place_id": "ChIJR1pOMPDGxokRctDbrUqjnHA",
      "types": [
        "route"
      ]
    },
    {
      "address_components": [
        {
          "long_name": "XQ3Q+65",
          "short_name": "XQ3Q+65",
          "types": [
            "plus_code"
          ]
        },
        {
          "long_name": "Philadelphia",
          "short_name": "Philadelphia",
          "types": [
            "locality",
            "political"
          ]
        },
        {
          "long_name": "Philadelphia County",
          "short_name": "Philadelphia County",
          "types": [
            "administrative_area_level_2",
            "political"
          ]
        },
        {
          "long_name": "Pennsylvania",
          "short_name": "PA",
          "types": [
            "administrative_area_level_1",
            "political"
          ]
        },
        {
          "long_name": "United States",
          "short_name": "US",
          "types": [
            "country",
            "political"
          ]
        }
      ],
      "formatted_address": "XQ3Q+65 Philadelphia, PA, USA",
      "geometry": {
        "bounds": {
          "northeast": {
            "lat": 39.953125,
            "lng": -75.212
          },
          "southwest": {
            "lat": 39.953,
            "lng": -75.212125
          }
        },
        "location": {
          "lat": 39.9530765,
          "lng": -75.2120968
        },
        "location_type": "GEOMETRIC_CENTER",
        "viewport": {
          "northeast": {
            "lat": 39.95441148029149,
            "lng": -75.21071351970849
          },
          "southwest": {
            "lat": 39.95171351970849,
            "lng": -75.21341148029151
          }
        }
      },
      "place_id": "GhIJBwsnaf75Q0ARheV0_pLNUsA",
      "plus_code": {
        "compound_code": "XQ3Q+65 Philadelphia, PA, USA",
        "global_code": "87F6XQ3Q+65"
      },
      "types": [
        "plus_code"
      ]
    },
    {
      "address_components": [
        {
          "long_name": "Spruce Hill",
          "short_name": "Spruce Hill",
          "types": [
            "neighborhood",
            "political"
          ]
        },
        {
          "long_name": "Philadelphia",
          "short_name": "Philadelphia",
          "types": [
            "locality",
            "political"
          ]
        },
        {
          "long_name": "Philadelphia County",
          "short_name": "Philadelphia County",
          "types": [
            "administrative_area_level_2",
            "political"
          ]
        },
        {
          "long_name": "Pennsylvania",
          "short_name": "PA",
          "types": [
            "administrative_area_level_1",
            "political"
          ]
        },
        {
          "long_name": "United States",
          "short_name": "US",
          "types": [
            "country",
            "political"
          ]
        }
      ],
      "formatted_address": "Spruce Hill, Philadelphia, PA, USA",
      "geometry": {
        "bounds": {
          "northeast": {
            "lat": 39.9583948,
            "lng": -75.2019851
          },
          "southwest": {
            "lat": 39.9444036,
            "lng": -75.2148914
          }
        },
        "location": {
          "lat": 39.9526969,
          "lng": -75.21057909999999
        },
        "location_type": "APPROXIMATE",
        "viewport": {
          "northeast": {
            "lat": 39.9583948,
            "lng": -75.2019851
          },
          "southwest": {
            "lat": 39.9444036,
            "lng": -75.2148914
          }
        }
      },
      "place_id": "ChIJq2v9D_HGxokRF3IejrLa88I",
      "types": [
        "neighborhood",
        "political"
      ]
    },
    {
      "address_components": [
        {
          "long_name": "University City",
          "short_name": "University City",
          "types": [
            "neighborhood",
            "political"
          ]
        },
        {
          "long_name": "Philadelphia",
          "short_name": "Philadelphia",
          "types": [
            "locality",
            "political"
          ]
        },
        {
          "long_name": "Philadelphia County",
          "short_name": "Philadelphia County",
          "types": [
            "administrative_area_level_2",
            "political"
          ]
        },
        {
          "long_name": "Pennsylvania",
          "short_name": "PA",
          "types": [
            "administrative_area_level_1",
            "political"
          ]
        },
        {
          "long_name": "United States",
          "short_name": "US",
          "types": [
            "country",
            "political"
          ]
        }
      ],
      "formatted_address": "University City, Philadelphia, PA, USA",
      "geometry": {
        "bounds": {
          "northeast": {
            "lat": 39.9634465,
            "lng": -75.1798378
          },
          "southwest": {
            "lat": 39.9367164,
            "lng": -75.227487
          }
        },
        "location": {
          "lat": 39.9536418,
          "lng": -75.19871069999999
        },
        "location_type": "APPROXIMATE",
        "viewport": {
          "northeast": {
            "lat": 39.9634465,
            "lng": -75.1798378
          },
          "southwest": {
            "lat": 39.9367164,
            "lng": -75.227487
          }
        }
      },
      "place_id": "ChIJuVAulljGxokRlEVFlNTvCjQ",
      "types": [
        "neighborhood",
        "political"
      ]
    },
    {
      "address_components": [
        {
          "long_name": "19104",
          "short_name": "19104",
          "types": [
            "postal_code"
          ]
        },
        {
          "long_name": "West Philadelphia",
          "short_name": "West Philadelphia",
          "types": [
            "neighborhood",
            "political"
          ]
        },
        {
          "long_name": "Philadelphia",
          "short_name": "Philadelphia",
          "types": [
            "locality",
            "political"
          ]
        },
        {
          "long_name": "Philadelphia County",
          "short_name": "Philadelphia County",
          "types": [
            "administrative_area_level_2",
            "political"
          ]
        },
        {
          "long_name": "Pennsylvania",
          "short_name": "PA",
          "types": [
            "administrative_area_level_1",
            "political"
          ]
        },
        {
          "long_name": "United States",
          "short_name": "US",
          "types": [
            "country",
            "political"
          ]
        }
      ],
      "formatted_address": "Philadelphia, PA 19104, USA",
      "geometry": {
        "bounds": {
          "northeast": {
            "lat": 39.978763,
            "lng": -75.1791259
          },
          "southwest": {
            "lat": 39.941501,
            "lng": -75.214018
          }
        },
        "location": {
          "lat": 39.9583587,
          "lng": -75.1953934
        },
        "location_type": "APPROXIMATE",
        "viewport": {
          "northeast": {
            "lat": 39.978763,
            "lng": -75.1791259
          },
          "southwest": {
            "lat": 39.941501,
            "lng": -75.214018
          }
        }
      },
      "place_id": "ChIJs7dfFFTGxokRIAr5pPXke4U",
      "types": [
        "postal_code"
      ]
    },
    {
      "address_components": [
        {
          "long_name": "Philadelphia County",
          "short_name": "Philadelphia County",
          "types": [
            "administrative_area_level_2",
            "political"
          ]
        },
        {
          "long_name": "Philadelphia",
          "short_name": "Philadelphia",
          "types": [
            "locality",
            "political"
          ]
        },
        {
          "long_name": "Pennsylvania",
          "short_name": "PA",
          "types": [
            "administrative_area_level_1",
            "political"
          ]
        },
        {
          "long_name": "United States",
          "short_name": "US",
          "types": [
            "country",
            "political"
          ]
        }
      ],
      "formatted_address": "Philadelphia County, Philadelphia, PA, USA",
      "geometry": {
        "bounds": {
          "northeast": {
            "lat": 40.137992,
            "lng": -74.9557629
          },
          "southwest": {
            "lat": 39.8674639,
            "lng": -75.280266
          }
        },
        "location": {
          "lat": 40.0152766,
          "lng": -75.1311874
        },
        "location_type": "APPROXIMATE",
        "viewport": {
          "northeast": {
            "lat": 40.137992,
            "lng": -74.9557629
          },
          "southwest": {
            "lat": 39.8674639,
            "lng": -75.280266
          }
        }
      },
      "place_id": "ChIJ60u11Ni3xokRhBCHQtzJmsM",
      "types": [
        "administrative_area_level_2",
        "political"
      ]
    },
    {
      "address_components": [
        {
          "long_name": "Philadelphia",
          "short_name": "Philadelphia",
          "types": [
            "locality",
            "political"
          ]
        },
        {
          "long_name": "Philadelphia County",
          "short_name": "Philadelphia County",
          "types": [
            "administrative_area_level_2",
            "political"
          ]
        },
        {
          "long_name": "Pennsylvania",
          "short_name": "PA",
          "types": [
            "administrative_area_level_1",
            "political"
          ]
        },
        {
          "long_name": "United States",
          "short_name": "US",
          "types": [
            "country",
            "political"
          ]
        }
      ],
      "formatted_address": "Philadelphia, PA, USA",
      "geometry": {
        "bounds": {
          "northeast": {
            "lat": 40.137992,
            "lng": -74.95576310000001
          },
          "southwest": {
            "lat": 39.8670039,
            "lng": -75.280266
          }
        },
        "location": {
          "lat": 39.9525839,
          "lng": -75.1652215
        },
        "location_type": "APPROXIMATE",
        "viewport": {
          "northeast": {
            "lat": 40.137992,
            "lng": -74.95576310000001
          },
          "southwest": {
            "lat": 39.8670039,
            "lng": -75.280266
          }
        }
      },
      "place_id": "ChIJ60u11Ni3xokRwVg-jNgU9Yk",
      "types": [
        "locality",
        "political"
      ]
    },
    {
      "address_components": [
        {
          "long_name": "Pennsylvania",
          "short_name": "PA",
          "types": [
            "administrative_area_level_1",
            "political"
          ]
        },
        {
          "long_name": "United States",
          "short_name": "US",
          "types": [
            "country",
            "political"
          ]
        }
      ],
      "formatted_address": "Pennsylvania, USA",
      "geometry": {
        "bounds": {
          "northeast": {
            "lat": 42.5141576,
            "lng": -74.6895609
          },
          "southwest": {
            "lat": 39.71979899999999,
            "lng": -80.51984829999999
          }
        },
        "location": {
          "lat": 41.2033216,
          "lng": -77.1945247
        },
        "location_type": "APPROXIMATE",
        "viewport": {
          "northeast": {
            "lat": 42.5141576,
            "lng": -74.6895609
          },
          "southwest": {
            "lat": 39.71979899999999,
            "lng": -80.51984829999999
          }
        }
      },
      "place_id": "ChIJieUyHiaALYgRPbQiUEchRsI",
      "types": [
        "administrative_area_level_1",
        "political"
      ]
    },
    {
      "address_components": [
        {
          "long_name": "United States",
          "short_name": "US",
          "types": [
            "country",
            "political"
          ]
        }
      ],
      "formatted_address": "United States",
      "geometry": {
        "bounds": {
          "northeast": {
            "lat": 74.071038,
            "lng": -66.885417
          },
          "southwest": {
            "lat": 18.7763,
            "lng": 166.9999999
          }
        },
        "location": {
          "lat": 38.7945952,
          "lng": -106.5348379
        },
        "location_type": "APPROXIMATE",
        "viewport": {
          "northeast": {
            "lat": 74.071038,
            "lng": -66.885417
          },
          "southwest": {
            "lat": 18.7763,
            "lng": 166.9999999
          }
        }
      },
      "place_id": "ChIJCzYy5IS16lQRQrfeQ5K5Oxw",
      "types": [
        "country",
        "political"
      ]
    }
  ],
  "status": "OK"
}